[{"line":"VERDE", "no":1, "LATLONG":"22°57'40.1\"S 43°24'20.3\"W", "lat":-22.9611388888889, "long":-43.4056388888889, "name":"PORTARIA 2"},
{"line":"VERDE", "no":2, "LATLONG":"22°57'38.9\"S 43°24'26.4\"W", "lat":-22.9608055555556, "long":-43.4073333333333, "name":"FÁBRICA DE CENÁRIOS"},
{"line":"VERDE", "no":3, "LATLONG":"22°57'32.9\"S 43°24'24.0\"W", "lat":-22.9591388888889, "long":-43.4066666666667, "name":"EIXO 300 - MG1"},
{"line":"VERDE", "no":4, "LATLONG":"22°57'33.4\"S 43°24'22.3\"W", "lat":-22.9592777777778, "long":-43.4061944444444, "name":"GIRAFAS"},
{"line":"VERDE", "no":5, "LATLONG":"22°57'31.3\"S 43°24'20.9\"W", "lat":-22.9586944444444, "long":-43.4058055555556, "name":"KOPENHAGEN"},
{"line":"VERDE", "no":6, "LATLONG":"22°57'26.6\"S 43°24'18.5\"W", "lat":-22.9573888888889, "long":-43.4051388888889, "name":"PORTARIA 3"},
{"line":"VERDE", "no":7, "LATLONG":"22°57'22.5\"S 43°24'12.2\"W", "lat":-22.95625, "long":-43.4033888888889, "name":"PORTARIA 4"},
{"line":"VERDE", "no":8, "LATLONG":"22°57'23.3\"S 43°24'09.2\"W", "lat":-22.9564722222222, "long":-43.4025555555556, "name":"PA3"},
{"line":"VERDE", "no":9, "LATLONG":"22°57'24.0\"S 43°24'06.1\"W", "lat":-22.9566666666667, "long":-43.4016944444444, "name":"IGREJA"},
{"line":"VERDE", "no":10, "LATLONG":"22°57'25.3\"S 43°24'06.7\"W", "lat":-22.9570277777778, "long":-43.4018611111111, "name":"PORTARIA 5 (CC3)"},
{"line":"VERDE", "no":11, "LATLONG":"22°57'31.0\"S 43°24'12.4\"W", "lat":-22.9586111111111, "long":-43.4034444444444, "name":"MG4 - PRAÇA"},
{"line":"VERDE", "no":12, "LATLONG":"22°57'31.3\"S 43°24'15.7\"W", "lat":-22.9586944444444, "long":-43.4043611111111, "name":"MG4 - ENTRADA DE PEDESTRES"},
{"line":"VERDE", "no":13, "LATLONG":"22°57'30.8\"S 43°24'20.9\"W", "lat":-22.9585555555556, "long":-43.4058055555556, "name":"KOPENHAGEN"},
{"line":"VERDE", "no":14, "LATLONG":"22°57'34.6\"S 43°24'21.1\"W", "lat":-22.9596111111111, "long":-43.405861111111, "name":"MG2"},
{"line":"ROSA", "no":1, "LATLONG":"22°57'26.8\"S 43°24'17.6\"W", "lat":-22.9574444444444, "long":-43.404888888888, "name":"PORTARIA 3"},
{"line":"ROSA", "no":2, "LATLONG":"22°57'25.7\"S 43°24'23.2\"W", "lat":-22.9571388888889, "long":-43.406444444444, "name":"PRAÇA MPS"},
{"line":"ROSA", "no":3, "LATLONG":"22°57'25.1\"S 43°24'27.5\"W", "lat":-22.9569722222222, "long":-43.407638888888, "name":"PULMÃO"},
{"line":"ROSA", "no":4, "LATLONG":"22°57'22.7\"S 43°24'31.9\"W", "lat":-22.9563055555556, "long":-43.408861111111, "name":"MAIS VC"},
{"line":"ROSA", "no":5, "LATLONG":"22°57'27.2\"S 43°24'26.0\"W", "lat":-22.9575555555556, "long":-43.407222222222, "name":"PULMAO / BBB"},
{"line":"ROSA", "no":6, "LATLONG":"22°57'29.1\"S 43°24'23.9\"W", "lat":-22.9580833333333, "long":-43.406638888888, "name":"MG3"},
{"line":"ROSA", "no":7, "LATLONG":"22°57'29.7\"S 43°24'21.8\"W", "lat":-22.95825, "long":-43.406055555555, "name":"MG1 - C/D"},
{"line":"ROSA", "no":8, "LATLONG":"22°57'31.3\"S 43°24'15.7\"W", "lat":-22.9586944444444, "long":-43.404361111111, "name":"MG1 - A/B"},
{"line":"ROSA", "no":9, "LATLONG":"22°57'31.0\"S 43°24'12.4\"W", "lat":-22.9586111111111, "long":-43.403444444444, "name":"MG4 - PRACA"},
{"line":"ROSA", "no":10, "LATLONG":"22°57'25.3\"S 43°24'06.7\"W", "lat":-22.9570277777778, "long":-43.401861111111, "name":"PORTARIA 5 (CC3)"},
{"line":"ROSA", "no":11, "LATLONG":"22°57'24.0\"S 43°24'06.1\"W", "lat":-22.9566666666667, "long":-43.401694444444, "name":""},
{"line":"ROSA", "no":12, "LATLONG":"22°57'23.3\"S 43°24'09.2\"W", "lat":-22.9564722222222, "long":-43.402555555555, "name":"PA3"},
{"line":"ROSA", "no":13, "LATLONG":"22°57'22.5\"S 43°24'12.2\"W", "lat":-22.95625, "long":-43.403388888888, "name":"PORTARIA 4"},
{"line":"AZUL", "no":1, "LATLONG":"22°57'40.1\"S 43°24'20.3\"W", "lat":-22.9611388888889, "long":-43.405638888888, "name":"PORTARIA 2"},
{"line":"AZUL", "no":2, "LATLONG":"22°57'33.3\"S 43°24'20.7\"W", "lat":-22.95925, "long":-43.4057, "name":"MG2"},
{"line":"AZUL", "no":3, "LATLONG":"22°57'31.3\"S 43°24'20.9\"W", "lat":-22.9586944444444, "long":-43.405805555555, "name":"KOPENHAGEN"},
{"line":"AZUL", "no":4, "LATLONG":"22°57'26.8\"S 43°24'17.6\"W", "lat":-22.9574444444444, "long":-43.404888888888, "name":"PORTARIA 3"},
{"line":"AZUL", "no":6, "LATLONG":"22°57'25.7\"S 43°24'23.2\"W", "lat":-22.9571388888889, "long":-43.406444444444, "name":"PRACA MPS"},
{"line":"AZUL", "no":7, "LATLONG":"22°57'27.2\"S 43°24'26.0\"W", "lat":-22.9575555555556, "long":-43.407222222222, "name":"MG3"},
{"line":"AZUL", "no":8, "LATLONG":"22°57'29.1\"S 43°24'23.9\"W", "lat":-22.9580833333333, "long":-43.406638888888, "name":"MG1 - C/D"},
{"line":"AZUL", "no":9, "LATLONG":"22°57'29.7\"S 43°24'21.8\"W", "lat":-22.95825, "long":-43.406055555555, "name":"MG1 - A/B"},
{"line":"AZUL", "no":10, "LATLONG":"22°57'31.3\"S 43°24'15.7\"W", "lat":-22.9586944444444, "long":-43.404361111111, "name":"MG4 - ENTRADA DE PEDESTRES"},
{"line":"AZUL", "no":11, "LATLONG":"22°57'31.0\"S 43°24'12.4\"W", "lat":-22.9586111111111, "long":-43.403444444444, "name":"MG4 - PRAÇA"},
{"line":"AZUL", "no":12, "LATLONG":"22°57'25.3\"S 43°24'06.7\"W", "lat":-22.9570277777778, "long":-43.401861111111, "name":"PORTARIA 5 (CC3)"},
{"line":"AZUL", "no":13, "LATLONG":"22°57'24.0\"S 43°24'06.1\"W", "lat":-22.9566666666667, "long":-43.401694444444, "name":"IGREJA"},
{"line":"AZUL", "no":14, "LATLONG":"22°57'23.3\"S 43°24'09.2\"W", "lat":-22.9564722222222, "long":-43.402555555555, "name":"PA3"},
{"line":"AZUL", "no":15, "LATLONG":"22°57'22.5\"S 43°24'12.2\"W", "lat":-22.95625, "long":-43.403388888888, "name":"PORTARIA 4"},
{"line":"AZUL", "no":16, "LATLONG":"22°57'26.6\"S 43°24'18.5\"W", "lat":-22.9573888888889, "long":-43.405138888888, "name":"PORTARIA 3 / CPP"},
{"line":"AZUL", "no":17, "LATLONG":"22°57'30.8\"S 43°24'20.9\"W", "lat":-22.9585555555556, "long":-43.405805555555, "name":"KOPENHAGEN"},
{"line":"AZUL", "no":20, "LATLONG":"22°57'33.4\"S 43°24'22.3\"W", "lat":-22.9592777777778, "long":-43.406194444444, "name":"GIRAFAS"},
{"line":"AZUL", "no":21, "LATLONG":"22°57'32.9\"S 43°24'24.0\"W", "lat":-22.9591388888889, "long":-43.406666666666, "name":"EIXO 300 - MG1"},
{"line":"AZUL", "no":22, "LATLONG":"22°57'38.9\"S 43°24'26.4\"W", "lat":-22.9608055555556, "long":-43.407333333333, "name":"FÁBRICA DE CENÁRIOS"},
{"line":"AZUL", "no":23, "LATLONG":"22°57'44.2\"S 43°24'22.8\"W", "lat":-22.9622777777778, "long":-43.406333333333, "name":"OFICINA DE CARRINHOS ELÉTRICOS"},
{"line":"AZUL", "no":24, "LATLONG":"22°57'45.5\"S 43°24'18.5\"W", "lat":-22.9626388888889, "long":-43.405138888888, "name":"CENTRO DE TREINAMENTO"},
{"line":"AZUL", "no":25, "LATLONG":"22°57'46.2\"S 43°24'16.8\"W", "lat":-22.9628333333333, "long":-43.404666666666, "name":"PORTARIA 1"},
{"line":"AMARELA", "no":1, "LATLONG":"22°57'40.1\"S 43°24'20.3\"W", "lat":-22.9611388888889, "long":-43.405638888888, "name":"PORTARIA 2"},
{"line":"AMARELA", "no":2, "LATLONG":"22°57'38.9\"S 43°24'26.4\"W", "lat":-22.9608055555556, "long":-43.407333333333, "name":"FÁBRICA DE CENÁRIOS"},
{"line":"AMARELA", "no":3, "LATLONG":"22°57'32.9\"S 43°24'24.0\"W", "lat":-22.9591388888889, "long":-43.406666666666, "name":"EIXO 300 - MG1"},
{"line":"AMARELA", "no":4, "LATLONG":"22°57'33.4\"S 43°24'22.3\"W", "lat":-22.9592777777778, "long":-43.406194444444, "name":"GIRAFAS"},
{"line":"AMARELA", "no":5, "LATLONG":"22°57'31.3\"S 43°24'20.9\"W", "lat":-22.9586944444444, "long":-43.405805555555, "name":"KOPENHAGEN"},
{"line":"AMARELA", "no":6, "LATLONG":"22°57'26.8\"S 43°24'17.6\"W", "lat":-22.9574444444444, "long":-43.404888888888, "name":"PORTARIA 3"},
{"line":"AMARELA", "no":7, "LATLONG":"22°57'25.7\"S 43°24'23.2\"W", "lat":-22.9571388888889, "long":-43.406444444444, "name":"PRAÇA DOS MPS"},
{"line":"AMARELA", "no":8, "LATLONG":"22°57'27.2\"S 43°24'26.0\"W", "lat":-22.9575555555556, "long":-43.407222222222, "name":"MG3"},
{"line":"AMARELA", "no":9, "LATLONG":"22°57'29.1\"S 43°24'23.9\"W", "lat":-22.9580833333333, "long":-43.406638888888, "name":"MG1 - C/D"},
{"line":"AMARELA", "no":10, "LATLONG":"22°57'29.7\"S 43°24'21.8\"W", "lat":-22.95825, "long":-43.406055555555, "name":"MG1 - A/B"},
{"line":"AMARELA", "no":11, "LATLONG":"22°57'30.8\"S 43°24'20.9\"W", "lat":-22.9585555555556, "long":-43.405805555555, "name":"KOPENHAGEN"},
{"line":"AMARELA", "no":12, "LATLONG":"22°57'34.6\"S 43°24'21.1\"W", "lat":-22.9596111111111, "long":-43.4058611111111, "name":"MG2"}
]